[{
	"ID": 1,
	"Name": "Поисково-спасательная станция «Крымский мост»",
	"global_id": 4704352,
	"ShortName": "ПСС «Крымский мост»",
	"AdmArea": "Центральный административный округ",
	"District": "район Якиманка",
	"Address": "улица Крымский Вал, владение 9",
	"ResponsibilityArea": "Акватория реки Москвы от причала «Фрунзенская набережная» вниз по течению до причала «Большой Каменный мост»",
	"Phone": [{
		"Phone": "(499) 237-71-26"
	}],
	"WorkingHours": "круглосуточно",
	"geoData": {
		"coordinates": [37.598311845177, 55.731360565038],
		"type": "Point"
	},
	"geodata_center": {
		"coordinates": [37.598311845177, 55.731360565038],
		"type": "Point"
	}
}, {
	"ID": 2,
	"Name": "Поисково-спасательная станция «Левобережная»",
	"global_id": 4704353,
	"ShortName": "ПСС «Левобережная»",
	"AdmArea": "Северный административный округ",
	"District": "район Левобережный",
	"Address": "Левобережная улица, владение 11А",
	"ResponsibilityArea": "Акватория канала имени Москвы от МКАД вниз по течению до Химкинского водохранилища, Химкинское водохранилище от канала имени Москвы до границы зоны по адресу: улица Свободы, дом 83, корпус 1, включая акваторию Бутаковского залива (граница зоны - 800 метров внутрь залива от входа в залив)",
	"Phone": [{
		"Phone": "(499) 458-66-15"
	}],
	"WorkingHours": "круглосуточно",
	"geoData": {
		"coordinates": [37.460831812646, 55.877381305446],
		"type": "Point"
	},
	"geodata_center": {
		"coordinates": [37.460831812646, 55.877381305446],
		"type": "Point"
	}
}, {
	"ID": 3,
	"Name": "Поисково-спасательная станция «Центральная», «Мобильная водолазная группа»",
	"global_id": 4704354,
	"ShortName": "ПСС «Центральная»",
	"AdmArea": "Северный административный округ",
	"District": "Войковский район",
	"Address": "Ленинградское шоссе, владение 43, строение 1",
	"ResponsibilityArea": "Акватория Химкинского водохранилища от пассажирского причала № 8 Северного речного вокзала вниз по течению до ЦСК ВМФ",
	"Phone": [{
		"Phone": "(495) 452-27-41"
	}, {
		"Phone": "(495) 452-24-95"
	}],
	"WorkingHours": "круглосуточно",
	"geoData": {
		"coordinates": [37.4765210969443, 55.839165448139],
		"type": "Point"
	},
	"geodata_center": {
		"coordinates": [37.4765210969443, 55.839165448139],
		"type": "Point"
	}
}, {
	"ID": 4,
	"Name": "Поисково-спасательная станция «Академическая»",
	"global_id": 4704355,
	"ShortName": "ПСС «Академическая»",
	"AdmArea": "Северный административный округ",
	"District": "Тимирязевский район",
	"Address": "Большая Академическая улица, дом 32А, строение 1",
	"ResponsibilityArea": "Большой Садовый пруд",
	"Phone": [{
		"Phone": "(499) 154-34-66"
	}],
	"WorkingHours": "круглосуточно",
	"geoData": {
		"coordinates": [37.538682159283, 55.835944379215],
		"type": "Point"
	},
	"geodata_center": {
		"coordinates": [37.538682159283, 55.835944379215],
		"type": "Point"
	}
}, {
	"ID": 5,
	"Name": "Поисково-спасательная станция «Косино»",
	"global_id": 4704356,
	"ShortName": "ПСС «Косино»",
	"AdmArea": "Восточный административный округ",
	"District": "район Косино-Ухтомский",
	"Address": "Заозёрная улица, владение 19",
	"ResponsibilityArea": "Белое озеро",
	"Phone": [{
		"Phone": "(495) 700-01-83"
	}],
	"WorkingHours": "круглосуточно",
	"geoData": {
		"coordinates": [37.848897511439, 55.721404917872],
		"type": "Point"
	},
	"geodata_center": {
		"coordinates": [37.848897511439, 55.721404917872],
		"type": "Point"
	}
}, {
	"ID": 6,
	"Name": "Поисково-спасательная станция «Терлецкая»",
	"global_id": 4704357,
	"ShortName": "ПСС «Терлецкая»",
	"AdmArea": "Восточный административный округ",
	"District": "район Ивановское",
	"Address": "Свободный проспект, владение 2Д",
	"ResponsibilityArea": "Терлецкие пруды",
	"Phone": [{
		"Phone": "(495) 305-17-00"
	}],
	"WorkingHours": "круглосуточно",
	"geoData": {
		"coordinates": [37.81439487411, 55.766163892056],
		"type": "Point"
	},
	"geodata_center": {
		"coordinates": [37.81439487411, 55.766163892056],
		"type": "Point"
	}
}, {
	"ID": 7,
	"Name": "Поисково-спасательная станция «Кожухово»",
	"global_id": 4704358,
	"ShortName": "ПСС «Кожухово»",
	"AdmArea": "Юго-Восточный административный округ",
	"District": "Южнопортовый район",
	"Address": "улица Трофимова, владение 12А",
	"ResponsibilityArea": "Акватория реки Москвы от границы зоны на расстоянии 300 метров ниже причала Южного речного вокзала вниз по течению до входа в Нагатинский рукав, включая старое русло реки Москвы от проспекта Андропова вниз по течению до Кожуховского затона, Кожуховский затон от старого русла реки Москвы до причала № 7 Южного речного порта",
	"Phone": [{
		"Phone": "(495) 679-04-95"
	}],
	"WorkingHours": "круглосуточно",
	"geoData": {
		"coordinates": [37.670378441102, 55.701899770467],
		"type": "Point"
	},
	"geodata_center": {
		"coordinates": [37.670378441102, 55.701899770467],
		"type": "Point"
	}
}, {
	"ID": 8,
	"Name": "Поисково-спасательная станция «Кузьминки»",
	"global_id": 4704359,
	"ShortName": "ПСС «Кузьминки»",
	"AdmArea": "Юго-Восточный административный округ",
	"District": "район Кузьминки",
	"Address": "улица Заречье, владение 14",
	"ResponsibilityArea": "Шибаевский пруд",
	"Phone": [{
		"Phone": "(495) 372-62-76"
	}],
	"WorkingHours": "круглосуточно",
	"geoData": {
		"coordinates": [37.775990440133, 55.692147435718],
		"type": "Point"
	},
	"geodata_center": {
		"coordinates": [37.775990440133, 55.692147435718],
		"type": "Point"
	}
}, {
	"ID": 9,
	"Name": "Поисково-спасательная станция «Текстильщики»",
	"global_id": 4704360,
	"ShortName": "ПСС «Текстильщики»",
	"AdmArea": "Юго-Восточный административный округ",
	"District": "район Текстильщики",
	"Address": "улица Шкулёва, владение 2Б",
	"ResponsibilityArea": "Нижний Люблинский пруд",
	"Phone": [{
		"Phone": "(499) 178-64-27"
	}],
	"WorkingHours": "круглосуточно",
	"geoData": {
		"coordinates": [37.741599369041, 55.690319773311],
		"type": "Point"
	},
	"geodata_center": {
		"coordinates": [37.741599369041, 55.690319773311],
		"type": "Point"
	}
}, {
	"ID": 10,
	"Name": "Поисково-спасательная станция «Борисовская»",
	"global_id": 4704361,
	"ShortName": "ПСС «Борисовская»",
	"AdmArea": "Южный административный округ",
	"District": "район Москворечье-Сабурово",
	"Address": "улица Борисовские Пруды, владение 2Г",
	"ResponsibilityArea": "Борисовский пруд",
	"Phone": [{
		"Phone": "(499) 324-52-81"
	}],
	"WorkingHours": "круглосуточно",
	"geoData": {
		"coordinates": [37.710319508943, 55.632889289369],
		"type": "Point"
	},
	"geodata_center": {
		"coordinates": [37.710319508943, 55.632889289369],
		"type": "Point"
	}
}, {
	"ID": 11,
	"Name": "Поисково-спасательная станция «Царицыно»",
	"global_id": 4704362,
	"ShortName": "ПСС «Царицыно»",
	"AdmArea": "Южный административный округ",
	"District": "район Бирюлёво Восточное",
	"Address": "Дольская улица, дом 1, строение 12",
	"ResponsibilityArea": "Верхний Царицынский пруд",
	"Phone": [{
		"Phone": "(495) 321-57-38"
	}],
	"WorkingHours": "круглосуточно",
	"geoData": {
		"coordinates": [37.677393200136, 55.61637771822],
		"type": "Point"
	},
	"geodata_center": {
		"coordinates": [37.677393200136, 55.61637771822],
		"type": "Point"
	}
}, {
	"ID": 12,
	"Name": "Поисково-спасательная станция «Рублево»",
	"global_id": 4704363,
	"ShortName": "ПСС «Рублево»",
	"AdmArea": "Западный административный округ",
	"District": "район Кунцево",
	"Address": "Ботылева, Мякининская пойма, дом 1",
	"ResponsibilityArea": "Акватория бухты «Живописная» до реки Москвы",
	"Phone": [{
		"Phone": "(499) 727-10-03"
	}],
	"WorkingHours": "круглосуточно",
	"geoData": {
		"coordinates": [37.356290287422, 55.795088577021],
		"type": "Point"
	},
	"geodata_center": {
		"coordinates": [37.356290287422, 55.795088577021],
		"type": "Point"
	}
}, {
	"ID": 13,
	"Name": "Поисково-спасательная станция «Кунцево»",
	"global_id": 4704364,
	"ShortName": "ПСС «Кунцево»",
	"AdmArea": "Западный административный округ",
	"District": "район Филёвский Парк",
	"Address": "Большая Филёвская улица, владение 40",
	"ResponsibilityArea": "Акватория реки Москвы от границы зоны на расстоянии 200 метров ниже Крылатского моста вниз по течению до границы зоны на расстоянии 2900 метров",
	"Phone": [{
		"Phone": "(499) 144-17-68"
	}],
	"WorkingHours": "круглосуточно",
	"geoData": {
		"coordinates": [37.456702628657, 55.740336555601],
		"type": "Point"
	},
	"geodata_center": {
		"coordinates": [37.456702628657, 55.740336555601],
		"type": "Point"
	}
}, {
	"ID": 14,
	"Name": "Поисково-спасательная станция «Фили»",
	"global_id": 4704365,
	"ShortName": "ПСС «Фили»",
	"AdmArea": "Западный административный округ",
	"District": "район Филёвский Парк",
	"Address": "Новозаводская улица, владение 35",
	"ResponsibilityArea": "Акватория реки Москвы от нижнего бьефа шлюза № 9 вверх по течению до границы зоны на расстоянии 2800 метров",
	"Phone": [{
		"Phone": "(499) 142-44-27"
	}],
	"WorkingHours": "круглосуточно",
	"geoData": {
		"coordinates": [37.476978021376, 55.752277046584],
		"type": "Point"
	},
	"geodata_center": {
		"coordinates": [37.476978021376, 55.752277046584],
		"type": "Point"
	}
}, {
	"ID": 15,
	"Name": "Поисково-спасательная станция «Ленинские горы»",
	"global_id": 4704366,
	"ShortName": "ПСС «Ленинские горы»",
	"AdmArea": "Западный административный округ",
	"District": "район Раменки",
	"Address": "Воробьёвская набережная, владение 1",
	"ResponsibilityArea": "Акватория реки Москвы от границы зоны по адресу: Бережковская набережная дом 24, строение 12, вниз по течению до границы зоны на расстоянии 300 метров ниже Лужнецкого метромоста",
	"Phone": [{
		"Phone": "(495) 939-00-42"
	}],
	"WorkingHours": "круглосуточно",
	"geoData": {
		"coordinates": [37.541229272515, 55.714312054183],
		"type": "Point"
	},
	"geodata_center": {
		"coordinates": [37.541229272515, 55.714312054183],
		"type": "Point"
	}
}, {
	"ID": 16,
	"Name": "Поисково-спасательная станция «Мещерская»",
	"global_id": 4704367,
	"ShortName": "ПСС «Мещерская»",
	"AdmArea": "Западный административный округ",
	"District": "район Солнцево",
	"Address": "Воскресенская улица, владение 3, строение А",
	"ResponsibilityArea": "Мещерский пруд",
	"Phone": [{
		"Phone": "(495) 439-31-68"
	}],
	"WorkingHours": "круглосуточно",
	"geoData": {
		"coordinates": [37.407088016993, 55.67355735767],
		"type": "Point"
	},
	"geodata_center": {
		"coordinates": [37.407088016993, 55.67355735767],
		"type": "Point"
	}
}, {
	"ID": 17,
	"Name": "Поисково-спасательная станция «Кировская»",
	"global_id": 4704368,
	"ShortName": "ПСС «Кировская»",
	"AdmArea": "Северо-Западный административный округ",
	"District": "район Строгино",
	"Address": "улица Исаковского, дом 6, строение 5",
	"ResponsibilityArea": "Акватория Кировского залива, акватория реки Москвы от Спасского моста МКАД вниз по течению до «Сходненского» причала, расположенного на левом берегу реки Москвы в 100 метрах ниже устья реки Сходня",
	"Phone": [{
		"Phone": "(495) 757-41-08"
	}],
	"WorkingHours": "круглосуточно",
	"geoData": {
		"coordinates": [37.401538934312, 55.8215798353],
		"type": "Point"
	},
	"geodata_center": {
		"coordinates": [37.401538934312, 55.8215798353],
		"type": "Point"
	}
}, {
	"ID": 18,
	"Name": "Поисково-спасательная станция «Строгино»",
	"global_id": 4704369,
	"ShortName": "ПСС «Строгино»",
	"AdmArea": "Северо-Западный административный округ",
	"District": "район Строгино",
	"Address": "улица Твардовского, владение 16, строение 3",
	"ResponsibilityArea": "Акватория Строгинской поймы реки Москва от юго-западной оконечности Строгинской поймы до границы зоны, проходящей по дуге с радиусом в 1800 метров, включая Чистый залив (граница зоны - 300 метров внутрь залива от входа в залив) и пойменный залив перед Строгинской поймой",
	"Phone": [{
		"Phone": "(495) 758-31-11"
	}],
	"WorkingHours": "круглосуточно",
	"geoData": {
		"coordinates": [37.414016239135, 55.797203765126],
		"type": "Point"
	},
	"geodata_center": {
		"coordinates": [37.414016239135, 55.797203765126],
		"type": "Point"
	}
}, {
	"ID": 19,
	"Name": "Поисково-спасательная станция «Серебряный Бор»",
	"global_id": 4704370,
	"ShortName": "ПСС «Серебряный Бор»",
	"AdmArea": "Северо-Западный административный округ",
	"District": "район Хорошёво-Мнёвники",
	"Address": "3-я линия Серебряного Бора, владение 135",
	"ResponsibilityArea": "Акватория реки Москвы от устья Соболевского (Октябрьского северного) ручья вниз по течению до пристани «Троице-Лыково», включая канал Хорошёвское спрямление вниз по течению до причала по адресу: 1-я линия Хорошёвского Серебряного Бора (до закрытия заградительных ворот, после их закрытия – до заградительных ворот)",
	"Phone": [{
		"Phone": "(499) 199-46-23"
	}],
	"WorkingHours": "круглосуточно",
	"geoData": {
		"coordinates": [37.43414125836, 55.785904719394],
		"type": "Point"
	},
	"geodata_center": {
		"coordinates": [37.43414125836, 55.785904719394],
		"type": "Point"
	}
}, {
	"ID": 20,
	"Name": "Поисково-спасательная станция «Татарово»",
	"global_id": 4704371,
	"ShortName": "ПСС «Татарово»",
	"AdmArea": "Северо-Западный административный округ",
	"District": "район Хорошёво-Мнёвники",
	"Address": "4-я линия Серебряного Бора, владение 19, корпус 5",
	"ResponsibilityArea": "Акватория реки Москвы от границы зоны на расстоянии 300 метров ниже пристани «Троице-Лыково» вниз по течению до причала ЦСК ВМФ",
	"Phone": [{
		"Phone": "(499) 199-38-31"
	}],
	"WorkingHours": "круглосуточно",
	"geoData": {
		"coordinates": [37.412920865686, 55.776429839173],
		"type": "Point"
	},
	"geodata_center": {
		"coordinates": [37.412920865686, 55.776429839173],
		"type": "Point"
	}
}, {
	"ID": 21,
	"Name": "Поисково-спасательная станция «Озеро Бездонное»",
	"global_id": 4704372,
	"ShortName": "ПСС «Озеро Бездонное»",
	"AdmArea": "Северо-Западный административный округ",
	"District": "район Хорошёво-Мнёвники",
	"Address": "Таманская улица, дом 55, корпус 5",
	"ResponsibilityArea": "Акватория озера Бездонное, включая пойменный залив перед озером до реки Москвы",
	"Phone": [{
		"Phone": "(499) 199-74-61"
	}],
	"WorkingHours": "круглосуточно",
	"geoData": {
		"coordinates": [37.428766918687, 55.779384874174],
		"type": "Point"
	},
	"geodata_center": {
		"coordinates": [37.428766918687, 55.779384874174],
		"type": "Point"
	}
}, {
	"ID": 22,
	"Name": "Поисково-спасательная станция «Карамышево»",
	"global_id": 4704373,
	"ShortName": "ПСС «Карамышево»",
	"AdmArea": "Северо-Западный административный округ",
	"District": "район Хорошёво-Мнёвники",
	"Address": "Карамышевская набережная, владение 13, корпус 2",
	"ResponsibilityArea": "Акватория реки Москвы от причала ЦСК ВМФ вниз по течению до верхнего бьефа шлюза № 9 и Карамышевской плотины, включая канал Хорошёвское спрямление вверх по течению до причала по адресу: 1-я линия Хорошёвского Серебряного Бора",
	"Phone": [{
		"Phone": "(499) 192-09-93"
	}],
	"WorkingHours": "круглосуточно",
	"geoData": {
		"coordinates": [37.460943133264, 55.771862499339],
		"type": "Point"
	},
	"geodata_center": {
		"coordinates": [37.460943133264, 55.771862499339],
		"type": "Point"
	}
}, {
	"ID": 23,
	"Name": "Поисково-спасательная станция «Пансионат»",
	"global_id": 4704374,
	"ShortName": "ПСС «Пансионат»",
	"AdmArea": "Зеленоградский административный округ",
	"District": "район Силино",
	"Address": "город Зеленоград, Панфиловский проезд, корпус 1001 В",
	"ResponsibilityArea": "Озеро Школьное",
	"Phone": [{
		"Phone": "(499) 729-80-60"
	}],
	"WorkingHours": "круглосуточно",
	"geoData": {
		"coordinates": [37.179676225996, 55.989021701445],
		"type": "Point"
	},
	"geodata_center": {
		"coordinates": [37.179676225996, 55.989021701445],
		"type": "Point"
	}
}, {
	"ID": 24,
	"Name": "Поисково-спасательная станция «Троицкая»",
	"global_id": 169245083,
	"ShortName": "ПСС «Троицкая»",
	"AdmArea": "Троицкий административный округ",
	"District": "поселение Троицк",
	"Address": "город Троицк, улица Парковая, правый  берег реки Десна",
	"ResponsibilityArea": "река Десна, зона отдыха «Заречье», городской округ Троицк; нижний русловый пруд на притоке реки Плесенка в деревне Черепово, поселение Десеновское; река Десна, деревня Рыбино, поселение Рязановское; русловский пруд на реке Лубянка в деревне Песье, поселение Шаловское; русловый пруд вблизи деревни Елизарово, поселение Первомайское",
	"Phone": [{
		"Phone": "(985) 939-00-34"
	}, {
		"Phone": "(916) 931-12-41"
	}],
	"WorkingHours": "круглосуточно",
	"geoData": {
		"coordinates": [37.305593000999, 55.493396156586],
		"type": "Point"
	},
	"geodata_center": {
		"coordinates": [37.305593000999, 55.493396156586],
		"type": "Point"
	}
}]